[
  {
    "id": "us-nyc-tribeca",
    "name": "NitNot Tribeca",
    "region": "Northeast",
    "country": "US",
    "city": "New York",
    "postcode": "10013",
    "address1": "210 Hudson St",
    "address2": "Suite 402",
    "phone": "+1 (212) 555-0142",
    "email": "tribeca@nitnot.com",
    "bookingUrl": "https://nitnot.com/contact",
    "lat": 40.7196,
    "lng": -74.0089,
    "services": ["Screening", "Removal", "Follow-up"],
    "active": true
  },
  {
    "id": "us-bos-backbay",
    "name": "NitNot Back Bay",
    "region": "Northeast",
    "country": "US",
    "city": "Boston",
    "postcode": "02116",
    "address1": "376 Boylston St",
    "phone": "+1 (617) 555-0130",
    "email": "backbay@nitnot.com",
    "bookingUrl": "https://nitnot.com/contact",
    "lat": 42.3503,
    "lng": -71.0802,
    "services": ["Screening", "School support"],
    "active": true
  },
  {
    "id": "us-atl-buckhead",
    "name": "NitNot Buckhead",
    "region": "Southeast",
    "country": "US",
    "city": "Atlanta",
    "postcode": "30305",
    "address1": "3005 Peachtree Rd NE",
    "phone": "+1 (404) 555-0168",
    "email": "buckhead@nitnot.com",
    "bookingUrl": "https://nitnot.com/contact",
    "lat": 33.8341,
    "lng": -84.3831,
    "services": ["Screening", "Removal", "Parent coaching"],
    "active": true
  },
  {
    "id": "us-chi-lincolnpark",
    "name": "NitNot Lincoln Park",
    "region": "Midwest",
    "country": "US",
    "city": "Chicago",
    "postcode": "60614",
    "address1": "1925 N Clybourn Ave",
    "phone": "+1 (312) 555-0194",
    "email": "lincolnpark@nitnot.com",
    "bookingUrl": "https://nitnot.com/contact",
    "lat": 41.9175,
    "lng": -87.6652,
    "services": ["Screening", "Removal"],
    "active": true
  },
  {
    "id": "us-dal-uptown",
    "name": "NitNot Uptown",
    "region": "South",
    "country": "US",
    "city": "Dallas",
    "postcode": "75204",
    "address1": "3210 McKinney Ave",
    "phone": "+1 (214) 555-0182",
    "email": "uptown@nitnot.com",
    "bookingUrl": "https://nitnot.com/contact",
    "lat": 32.8038,
    "lng": -96.798,
    "services": ["Screening", "Removal", "School support"],
    "active": true
  },
  {
    "id": "us-den-cherrycreek",
    "name": "NitNot Cherry Creek",
    "region": "Mountain",
    "country": "US",
    "city": "Denver",
    "postcode": "80206",
    "address1": "3000 E 1st Ave",
    "phone": "+1 (303) 555-0119",
    "email": "cherrycreek@nitnot.com",
    "bookingUrl": "https://nitnot.com/contact",
    "lat": 39.7184,
    "lng": -104.9509,
    "services": ["Screening", "Removal"],
    "active": true
  },
  {
    "id": "us-sea-capitolhill",
    "name": "NitNot Capitol Hill",
    "region": "West",
    "country": "US",
    "city": "Seattle",
    "postcode": "98102",
    "address1": "1222 E Madison St",
    "phone": "+1 (206) 555-0177",
    "email": "capitolhill@nitnot.com",
    "bookingUrl": "https://nitnot.com/contact",
    "lat": 47.614,
    "lng": -122.3187,
    "services": ["Screening", "Removal", "Family plans"],
    "active": true
  },
  {
    "id": "us-la-santamonica",
    "name": "NitNot Santa Monica",
    "region": "West",
    "country": "US",
    "city": "Los Angeles",
    "postcode": "90401",
    "address1": "1421 5th St",
    "phone": "+1 (310) 555-0104",
    "email": "santamonica@nitnot.com",
    "bookingUrl": "https://nitnot.com/contact",
    "lat": 34.0145,
    "lng": -118.4937,
    "services": ["Screening", "Removal", "Aftercare"],
    "active": true
  }
]
